[
  {
    "id": "venue_001",
    "name": "Hatfield Community Hub",
    "type": "community_hall",
    "gss_district": "E07000241",
    "gss_county": "E10000015",
    "postcode": "AL10 0LA",
    "lat": 51.7634,
    "lng": -0.2282,
    "address": "Town Centre, Hatfield AL10 0LA",
    "website": "https://www.welhat.gov.uk/",
    "phone": "01707 357000",
    "tags": ["hire", "events", "meetings", "community"]
  },
  {
    "id": "venue_002",
    "name": "The Campus, Welwyn Garden City",
    "type": "community_hall",
    "gss_district": "E07000241",
    "gss_county": "E10000015",
    "postcode": "AL8 6AE",
    "lat": 51.8036,
    "lng": -0.1961,
    "address": "Welwyn Garden City AL8 6AE",
    "website": "https://www.welhat.gov.uk/",
    "phone": "01707 357000",
    "tags": ["civic", "public space", "events"]
  },
  {
    "id": "venue_003",
    "name": "Welwyn Civic Centre",
    "type": "community_hall",
    "gss_district": "E07000241",
    "gss_county": "E10000015",
    "postcode": "AL6 9ER",
    "lat": 51.8045,
    "lng": -0.2272,
    "address": "Prospect Place, Welwyn AL6 9ER",
    "website": "https://www.welhat.gov.uk/",
    "phone": "01707 357000",
    "tags": ["council", "meetings", "public"]
  },
  {
    "id": "venue_004",
    "name": "Hatfield Leisure Centre",
    "type": "leisure",
    "gss_district": "E07000241",
    "gss_county": "E10000015",
    "postcode": "AL10 0NH",
    "lat": 51.7625,
    "lng": -0.2195,
    "address": "Borough Road, Hatfield AL10 0NH",
    "website": "https://www.welhat.gov.uk/",
    "phone": "01707 340800",
    "tags": ["swimming", "gym", "sports", "family"]
  },
  {
    "id": "venue_005",
    "name": "Woodhall Gym & Fitness",
    "type": "leisure",
    "gss_district": "E07000241",
    "gss_county": "E10000015",
    "postcode": "AL8 7NA",
    "lat": 51.8123,
    "lng": -0.1889,
    "address": "Woodhall Lane, Welwyn Garden City AL8 7NA",
    "website": "https://woodhallsports.com",
    "phone": "01707 324000",
    "tags": ["gym", "fitness", "classes"]
  },
  {
    "id": "venue_006",
    "name": "Stanborough Park Nature Reserve",
    "type": "nature",
    "gss_district": "E07000241",
    "gss_county": "E10000015",
    "postcode": "AL8 6AB",
    "lat": 51.8089,
    "lng": -0.1845,
    "address": "Stanborough Lane, Welwyn Garden City AL8 6AB",
    "website": "https://www.welhat.gov.uk/",
    "phone": null,
    "tags": ["nature", "walking", "wildlife", "free"]
  },
  {
    "id": "venue_007",
    "name": "Hatfield Railway Station",
    "type": "transport",
    "gss_district": "E07000241",
    "gss_county": "E10000015",
    "postcode": "AL10 0BL",
    "lat": 51.7598,
    "lng": -0.2288,
    "address": "Hatfield AL10 0BL",
    "website": "https://www.greateranglia.co.uk/",
    "phone": null,
    "tags": ["rail", "transport", "london connection"]
  },
  {
    "id": "venue_008",
    "name": "Welwyn Garden City Railway Station",
    "type": "transport",
    "gss_district": "E07000241",
    "gss_county": "E10000015",
    "postcode": "AL8 6HG",
    "lat": 51.8029,
    "lng": -0.2009,
    "address": "Station Road, Welwyn Garden City AL8 6HG",
    "website": "https://www.greateranglia.co.uk/",
    "phone": null,
    "tags": ["rail", "transport", "london connection"]
  }
]
